[
  {
    "id": "region-ishikari-1",
    "municipality": "江別市",
    "subpref": "ishikari",
    "fireDepartment": "",
    "lat": 43.102689,
    "lng": 141.521589,
    "withinRequestArea": true,
    "nearbyHospitals": [],
    "points": [
      {
        "rp": "北海道消防学校",
        "lat": 43.102689,
        "lng": 141.521589,
        "heliDistanceKm": 22,
        "heliFlightMin": 11,
        "heliHelipadMin": 6,
        "rpCount": 29,
        "groundToBaseMin": 35,
        "hospitalTimes": [
          {
            "name": "札幌東徳洲会病院",
            "min": 20
          },
          {
            "name": "札幌徳洲会病院",
            "min": 22
          },
          {
            "name": "北海道大学病院",
            "min": 30
          }
        ]
      }
    ]
  },
  {
    "id": "region-ishikari-2",
    "municipality": "北広島市",
    "subpref": "ishikari",
    "fireDepartment": "",
    "lat": 42.996385,
    "lng": 141.584642,
    "withinRequestArea": true,
    "nearbyHospitals": [],
    "points": [
      {
        "rp": "北広島地区河川防災ステーション",
        "lat": 42.996385,
        "lng": 141.584642,
        "heliDistanceKm": 30,
        "heliFlightMin": 13,
        "heliHelipadMin": 6,
        "rpCount": 16,
        "groundToBaseMin": 50,
        "hospitalTimes": [
          {
            "name": "札幌東徳洲会病院",
            "min": 35
          },
          {
            "name": "札幌徳洲会病院",
            "min": 22
          },
          {
            "name": "北海道大学病院",
            "min": 45
          }
        ]
      }
    ]
  },
  {
    "id": "region-ishikari-3",
    "municipality": "恵庭市",
    "subpref": "ishikari",
    "fireDepartment": "",
    "lat": 42.8299,
    "lng": 141.628083,
    "withinRequestArea": true,
    "nearbyHospitals": [],
    "points": [
      {
        "rp": "陸上自衛隊北恵庭駐屯地",
        "lat": 42.8299,
        "lng": 141.628083,
        "heliDistanceKm": 44,
        "heliFlightMin": 16,
        "heliHelipadMin": 6,
        "rpCount": 16,
        "groundToBaseMin": 55,
        "hospitalTimes": [
          {
            "name": "札幌東徳洲会病院",
            "min": 45
          },
          {
            "name": "札幌徳洲会病院",
            "min": 35
          },
          {
            "name": "北海道大学病院",
            "min": 55
          }
        ]
      }
    ]
  },
  {
    "id": "region-ishikari-4",
    "municipality": "千歳市",
    "subpref": "ishikari",
    "fireDepartment": "",
    "lat": 42.843677,
    "lng": 141.639824,
    "withinRequestArea": true,
    "nearbyHospitals": [],
    "points": [
      {
        "rp": "千歳市民病院",
        "lat": 42.843677,
        "lng": 141.639824,
        "heliDistanceKm": 44,
        "heliFlightMin": 16,
        "heliHelipadMin": 6,
        "rpCount": 12,
        "groundToBaseMin": 55,
        "hospitalTimes": [
          {
            "name": "札幌東徳洲会病院",
            "min": 45
          },
          {
            "name": "札幌徳洲会病院",
            "min": 35
          },
          {
            "name": "北海道大学病院",
            "min": 55
          }
        ]
      }
    ]
  },
  {
    "id": "region-ishikari-5",
    "municipality": "石狩市",
    "subpref": "ishikari",
    "fireDepartment": "石狩市消防本部",
    "lat": 43.1713,
    "lng": 141.3155,
    "withinRequestArea": true,
    "nearbyHospitals": [],
    "points": [
      {
        "rp": "石狩湾新港支署",
        "lat": 43.1713,
        "lng": 141.3155,
        "heliDistanceKm": 8,
        "heliFlightMin": 8,
        "heliHelipadMin": 6,
        "rpCount": 6,
        "groundToBaseMin": 35,
        "hospitalTimes": [
          {
            "name": "札幌東徳洲会病院",
            "min": 35
          }
        ]
      },
      {
        "rp": "浜益コミュニティーセンターきらり",
        "lat": 43.601055,
        "lng": 141.383149,
        "heliDistanceKm": 55,
        "heliFlightMin": 18,
        "heliHelipadMin": 6,
        "rpCount": 8,
        "groundToBaseMin": 85,
        "hospitalTimes": []
      },
      {
        "rp": "望来コミュニセンターみなくる",
        "lat": 43.31777,
        "lng": 141.418262,
        "heliDistanceKm": 27,
        "heliFlightMin": 12,
        "heliHelipadMin": 6,
        "rpCount": 12,
        "groundToBaseMin": 45,
        "hospitalTimes": []
      },
      {
        "rp": "厚田中学校",
        "lat": 43.402129,
        "lng": 141.432215,
        "heliDistanceKm": 35,
        "heliFlightMin": 14,
        "heliHelipadMin": 6,
        "rpCount": 3,
        "groundToBaseMin": 55,
        "hospitalTimes": []
      }
    ]
  },
  {
    "id": "region-ishikari-6",
    "municipality": "当別町",
    "subpref": "ishikari",
    "fireDepartment": "",
    "lat": 43.2201,
    "lng": 141.5087,
    "withinRequestArea": true,
    "nearbyHospitals": [],
    "points": [
      {
        "rp": "当別消防署",
        "lat": 43.2201,
        "lng": 141.5087,
        "heliDistanceKm": 24,
        "heliFlightMin": 12,
        "heliHelipadMin": 6,
        "rpCount": 26,
        "groundToBaseMin": 50,
        "hospitalTimes": [
          {
            "name": "札幌東徳洲会病院",
            "min": 35
          },
          {
            "name": "勤医協中央病院",
            "min": 35
          },
          {
            "name": "北海道大学病院",
            "min": 50
          }
        ]
      }
    ]
  },
  {
    "id": "region-ishikari-7",
    "municipality": "新篠津村",
    "subpref": "ishikari",
    "fireDepartment": "",
    "lat": 43.223636,
    "lng": 141.649709,
    "withinRequestArea": true,
    "nearbyHospitals": [],
    "points": [
      {
        "rp": "新篠津運動公園第2サッカー場",
        "lat": 43.223636,
        "lng": 141.649709,
        "heliDistanceKm": 35,
        "heliFlightMin": 14,
        "heliHelipadMin": 6,
        "rpCount": 3,
        "groundToBaseMin": 55,
        "hospitalTimes": [
          {
            "name": "札幌東徳洲会病院",
            "min": 45
          }
        ]
      }
    ]
  },
  {
    "id": "region-shiribeshi-8",
    "municipality": "小樽市",
    "subpref": "shiribeshi",
    "fireDepartment": "小樽市消防本部",
    "lat": 43.185667,
    "lng": 141.007475,
    "withinRequestArea": true,
    "nearbyHospitals": [],
    "points": [
      {
        "rp": "小樽市立病院",
        "lat": 43.185667,
        "lng": 141.007475,
        "heliDistanceKm": 21,
        "heliFlightMin": 11,
        "heliHelipadMin": 6,
        "rpCount": 4,
        "groundToBaseMin": 35,
        "hospitalTimes": [
          {
            "name": "小樽市立病院",
            "min": 0
          }
        ]
      }
    ]
  },
  {
    "id": "region-shiribeshi-9",
    "municipality": "余市町",
    "subpref": "shiribeshi",
    "fireDepartment": "",
    "lat": 43.171291,
    "lng": 140.807453,
    "withinRequestArea": true,
    "nearbyHospitals": [],
    "points": [
      {
        "rp": "余市農道空港",
        "lat": 43.171291,
        "lng": 140.807453,
        "heliDistanceKm": 36,
        "heliFlightMin": 14,
        "heliHelipadMin": 6,
        "rpCount": 8,
        "groundToBaseMin": 45,
        "hospitalTimes": [
          {
            "name": "小樽市立病院",
            "min": 30
          },
          {
            "name": "余市協会病院",
            "min": 6
          }
        ]
      }
    ]
  },
  {
    "id": "region-shiribeshi-10",
    "municipality": "仁木町",
    "subpref": "shiribeshi",
    "fireDepartment": "",
    "lat": 43.15403,
    "lng": 140.764062,
    "withinRequestArea": true,
    "nearbyHospitals": [],
    "points": [
      {
        "rp": "仁木支署",
        "lat": 43.15403,
        "lng": 140.764062,
        "heliDistanceKm": 40,
        "heliFlightMin": 15,
        "heliHelipadMin": 6,
        "rpCount": 46,
        "groundToBaseMin": 50,
        "hospitalTimes": [
          {
            "name": "小樽市立病院",
            "min": 35
          },
          {
            "name": "余市協会病院",
            "min": 12
          }
        ]
      }
    ]
  },
  {
    "id": "region-shiribeshi-11",
    "municipality": "赤井川村",
    "subpref": "shiribeshi",
    "fireDepartment": "",
    "lat": 43.0835,
    "lng": 140.8136,
    "withinRequestArea": true,
    "nearbyHospitals": [],
    "points": [
      {
        "rp": "赤井川支署",
        "lat": 43.0835,
        "lng": 140.8136,
        "heliDistanceKm": 36,
        "heliFlightMin": 14,
        "heliHelipadMin": 6,
        "rpCount": 7,
        "groundToBaseMin": 55,
        "hospitalTimes": [
          {
            "name": "小樽市立病院",
            "min": 40
          },
          {
            "name": "余市協会病院",
            "min": 18
          }
        ]
      },
      {
        "rp": "キロロ",
        "lat": 43.068938,
        "lng": 140.98921,
        "heliDistanceKm": 22,
        "heliFlightMin": 11,
        "heliHelipadMin": 6,
        "rpCount": 10,
        "groundToBaseMin": 55,
        "hospitalTimes": [
          {
            "name": "小樽市立病院",
            "min": 35
          }
        ]
      }
    ]
  },
  {
    "id": "region-shiribeshi-12",
    "municipality": "古平町",
    "subpref": "shiribeshi",
    "fireDepartment": "",
    "lat": 43.259885,
    "lng": 140.639631,
    "withinRequestArea": true,
    "nearbyHospitals": [],
    "points": [
      {
        "rp": "古平支署",
        "lat": 43.259885,
        "lng": 140.639631,
        "heliDistanceKm": 52,
        "heliFlightMin": 18,
        "heliHelipadMin": 6,
        "rpCount": 17,
        "groundToBaseMin": 70,
        "hospitalTimes": [
          {
            "name": "小樽市立病院",
            "min": 50
          },
          {
            "name": "余市協会病院",
            "min": 26
          }
        ]
      }
    ]
  },
  {
    "id": "region-shiribeshi-13",
    "municipality": "積丹町",
    "subpref": "shiribeshi",
    "fireDepartment": "",
    "lat": 43.291021,
    "lng": 140.593466,
    "withinRequestArea": true,
    "nearbyHospitals": [],
    "points": [
      {
        "rp": "美国中学校",
        "lat": 43.291021,
        "lng": 140.593466,
        "heliDistanceKm": 57,
        "heliFlightMin": 19,
        "heliHelipadMin": 6,
        "rpCount": 9,
        "groundToBaseMin": 75,
        "hospitalTimes": [
          {
            "name": "小樽市立病院",
            "min": 60
          },
          {
            "name": "余市協会病院",
            "min": 35
          }
        ]
      }
    ]
  },
  {
    "id": "region-shiribeshi-14",
    "municipality": "倶知安町",
    "subpref": "shiribeshi",
    "fireDepartment": "",
    "lat": 42.905257,
    "lng": 140.754856,
    "withinRequestArea": true,
    "nearbyHospitals": [],
    "points": [
      {
        "rp": "倶知安中央公園",
        "lat": 42.905257,
        "lng": 140.754856,
        "heliDistanceKm": 46,
        "heliFlightMin": 16,
        "heliHelipadMin": 6,
        "rpCount": 77,
        "groundToBaseMin": 90,
        "hospitalTimes": [
          {
            "name": "小樽市立病院",
            "min": 70
          },
          {
            "name": "倶知安厚生病院",
            "min": 4
          }
        ]
      }
    ]
  },
  {
    "id": "region-shiribeshi-15",
    "municipality": "ニセコ町",
    "subpref": "shiribeshi",
    "fireDepartment": "",
    "lat": 42.832234,
    "lng": 140.672034,
    "withinRequestArea": true,
    "nearbyHospitals": [],
    "points": [
      {
        "rp": "ニセコヘリポート",
        "lat": 42.832234,
        "lng": 140.672034,
        "heliDistanceKm": 56,
        "heliFlightMin": 19,
        "heliHelipadMin": 6,
        "rpCount": 9,
        "groundToBaseMin": 110,
        "hospitalTimes": [
          {
            "name": "小樽市立病院",
            "min": 90
          },
          {
            "name": "倶知安厚生病院",
            "min": 24
          }
        ]
      }
    ]
  },
  {
    "id": "region-shiribeshi-16",
    "municipality": "蘭越町",
    "subpref": "shiribeshi",
    "fireDepartment": "",
    "lat": 42.808835,
    "lng": 140.525323,
    "withinRequestArea": true,
    "nearbyHospitals": [],
    "points": [
      {
        "rp": "蘭越山村広場",
        "lat": 42.808835,
        "lng": 140.525323,
        "heliDistanceKm": 68,
        "heliFlightMin": 21,
        "heliHelipadMin": 6,
        "rpCount": 16,
        "groundToBaseMin": 120,
        "hospitalTimes": [
          {
            "name": "小樽市立病院",
            "min": 100
          },
          {
            "name": "倶知安厚生病院",
            "min": 40
          }
        ]
      }
    ]
  },
  {
    "id": "region-shiribeshi-17",
    "municipality": "共和町",
    "subpref": "shiribeshi",
    "fireDepartment": "",
    "lat": 42.98354,
    "lng": 140.611925,
    "withinRequestArea": true,
    "nearbyHospitals": [],
    "points": [
      {
        "rp": "共和町憩いの広場 (総合公園)",
        "lat": 42.98354,
        "lng": 140.611925,
        "heliDistanceKm": 54,
        "heliFlightMin": 18,
        "heliHelipadMin": 6,
        "rpCount": 15,
        "groundToBaseMin": 75,
        "hospitalTimes": [
          {
            "name": "小樽市立病院",
            "min": 60
          },
          {
            "name": "倶知安厚生病院",
            "min": 22
          },
          {
            "name": "岩内協会病院",
            "min": 14
          }
        ]
      }
    ]
  },
  {
    "id": "region-shiribeshi-18",
    "municipality": "岩内町",
    "subpref": "shiribeshi",
    "fireDepartment": "",
    "lat": 42.997615,
    "lng": 140.521436,
    "withinRequestArea": true,
    "nearbyHospitals": [],
    "points": [
      {
        "rp": "岩内新港東埠頭",
        "lat": 42.997615,
        "lng": 140.521436,
        "heliDistanceKm": 61,
        "heliFlightMin": 19,
        "heliHelipadMin": 6,
        "rpCount": 37,
        "groundToBaseMin": 80,
        "hospitalTimes": [
          {
            "name": "小樽市立病院",
            "min": 65
          },
          {
            "name": "倶知安厚生病院",
            "min": 30
          },
          {
            "name": "岩内協会病院",
            "min": 7
          }
        ]
      }
    ]
  },
  {
    "id": "region-shiribeshi-19",
    "municipality": "泊村",
    "subpref": "shiribeshi",
    "fireDepartment": "",
    "lat": 43.057318,
    "lng": 140.498546,
    "withinRequestArea": true,
    "nearbyHospitals": [],
    "points": [
      {
        "rp": "泊村公民館",
        "lat": 43.057318,
        "lng": 140.498546,
        "heliDistanceKm": 61,
        "heliFlightMin": 20,
        "heliHelipadMin": 6,
        "rpCount": 14,
        "groundToBaseMin": 85,
        "hospitalTimes": [
          {
            "name": "小樽市立病院",
            "min": 70
          },
          {
            "name": "倶知安厚生病院",
            "min": 35
          },
          {
            "name": "岩内協会病院",
            "min": 18
          }
        ]
      }
    ]
  },
  {
    "id": "region-shiribeshi-20",
    "municipality": "神恵内村",
    "subpref": "shiribeshi",
    "fireDepartment": "",
    "lat": 43.14541,
    "lng": 140.424364,
    "withinRequestArea": true,
    "nearbyHospitals": [],
    "points": [
      {
        "rp": "神恵内村総合グラウンド",
        "lat": 43.14541,
        "lng": 140.424364,
        "heliDistanceKm": 67,
        "heliFlightMin": 21,
        "heliHelipadMin": 6,
        "rpCount": 2,
        "groundToBaseMin": 110,
        "hospitalTimes": [
          {
            "name": "小樽市立病院",
            "min": 85
          },
          {
            "name": "倶知安厚生病院",
            "min": 50
          },
          {
            "name": "岩内協会病院",
            "min": 35
          }
        ]
      }
    ]
  },
  {
    "id": "region-shiribeshi-21",
    "municipality": "寿都町",
    "subpref": "shiribeshi",
    "fireDepartment": "",
    "lat": 42.790851,
    "lng": 140.229098,
    "withinRequestArea": true,
    "nearbyHospitals": [],
    "points": [
      {
        "rp": "寿都町役場",
        "lat": 42.790851,
        "lng": 140.229098,
        "heliDistanceKm": 90,
        "heliFlightMin": 26,
        "heliHelipadMin": 6,
        "rpCount": 28,
        "groundToBaseMin": 140,
        "hospitalTimes": [
          {
            "name": "小樽市立病院",
            "min": 120
          },
          {
            "name": "倶知安厚生病院",
            "min": 75
          },
          {
            "name": "岩内協会病院",
            "min": 50
          }
        ]
      }
    ]
  },
  {
    "id": "region-shiribeshi-22",
    "municipality": "黒松内町",
    "subpref": "shiribeshi",
    "fireDepartment": "",
    "lat": 42.682472,
    "lng": 140.302909,
    "withinRequestArea": true,
    "nearbyHospitals": [],
    "points": [
      {
        "rp": "黒松内防災へリポート",
        "lat": 42.682472,
        "lng": 140.302909,
        "heliDistanceKm": 91,
        "heliFlightMin": 26,
        "heliHelipadMin": 6,
        "rpCount": 3,
        "groundToBaseMin": 140,
        "hospitalTimes": [
          {
            "name": "小樽市立病院",
            "min": 120
          },
          {
            "name": "倶知安厚生病院",
            "min": 65
          },
          {
            "name": "岩内協会病院",
            "min": 50
          }
        ]
      }
    ]
  },
  {
    "id": "region-shiribeshi-23",
    "municipality": "島牧村",
    "subpref": "shiribeshi",
    "fireDepartment": "",
    "lat": 42.686135,
    "lng": 140.012486,
    "withinRequestArea": true,
    "nearbyHospitals": [],
    "points": [
      {
        "rp": "島牧村千走地区山村広場",
        "lat": 42.686135,
        "lng": 140.012486,
        "heliDistanceKm": 111,
        "heliFlightMin": 30,
        "heliHelipadMin": 6,
        "rpCount": 2,
        "groundToBaseMin": 170,
        "hospitalTimes": [
          {
            "name": "小樽市立病院",
            "min": 160
          },
          {
            "name": "倶知安厚生病院",
            "min": 110
          },
          {
            "name": "岩内協会病院",
            "min": 80
          }
        ]
      }
    ]
  },
  {
    "id": "region-shiribeshi-24",
    "municipality": "京極町",
    "subpref": "shiribeshi",
    "fireDepartment": "",
    "lat": 42.854911,
    "lng": 140.884134,
    "withinRequestArea": true,
    "nearbyHospitals": [],
    "points": [
      {
        "rp": "リフレッシュパーク",
        "lat": 42.854911,
        "lng": 140.884134,
        "heliDistanceKm": 41,
        "heliFlightMin": 15,
        "heliHelipadMin": 6,
        "rpCount": 8,
        "groundToBaseMin": 100,
        "hospitalTimes": [
          {
            "name": "小樽市立病院",
            "min": 85
          },
          {
            "name": "倶知安厚生病院",
            "min": 22
          }
        ]
      }
    ]
  },
  {
    "id": "region-shiribeshi-25",
    "municipality": "喜茂別町",
    "subpref": "shiribeshi",
    "fireDepartment": "",
    "lat": 42.856805,
    "lng": 141.096546,
    "withinRequestArea": true,
    "nearbyHospitals": [],
    "points": [
      {
        "rp": "中山峠（喜茂別）",
        "lat": 42.856805,
        "lng": 141.096546,
        "heliDistanceKm": 31,
        "heliFlightMin": 13,
        "heliHelipadMin": 6,
        "rpCount": 7,
        "groundToBaseMin": 85,
        "hospitalTimes": [
          {
            "name": "札幌医科大学",
            "min": 60
          },
          {
            "name": "中村記念南病院",
            "min": 45
          },
          {
            "name": "自衛隊札幌病院",
            "min": 50
          }
        ]
      }
    ]
  },
  {
    "id": "region-shiribeshi-26",
    "municipality": "留寿都村",
    "subpref": "shiribeshi",
    "fireDepartment": "",
    "lat": 42.750191,
    "lng": 140.901798,
    "withinRequestArea": true,
    "nearbyHospitals": [],
    "points": [
      {
        "rp": "加森観光へリポート",
        "lat": 42.750191,
        "lng": 140.901798,
        "heliDistanceKm": 49,
        "heliFlightMin": 17,
        "heliHelipadMin": 6,
        "rpCount": 4,
        "groundToBaseMin": 110,
        "hospitalTimes": [
          {
            "name": "小樽市立病院",
            "min": 100
          },
          {
            "name": "倶知安厚生病院",
            "min": 40
          }
        ]
      }
    ]
  },
  {
    "id": "region-shiribeshi-27",
    "municipality": "真狩村",
    "subpref": "shiribeshi",
    "fireDepartment": "",
    "lat": 42.763548,
    "lng": 140.789731,
    "withinRequestArea": true,
    "nearbyHospitals": [],
    "points": [
      {
        "rp": "真狩村除雪センター",
        "lat": 42.763548,
        "lng": 140.789731,
        "heliDistanceKm": 54,
        "heliFlightMin": 18,
        "heliHelipadMin": 6,
        "rpCount": 11,
        "groundToBaseMin": 120,
        "hospitalTimes": [
          {
            "name": "札幌医科大学",
            "min": 100
          },
          {
            "name": "倶知安厚生病院",
            "min": 28
          }
        ]
      }
    ]
  },
  {
    "id": "region-iburi-28",
    "municipality": "室蘭市",
    "subpref": "iburi",
    "fireDepartment": "室蘭市消防本部",
    "lat": 42.353611,
    "lng": 141.024763,
    "withinRequestArea": true,
    "nearbyHospitals": [],
    "points": [
      {
        "rp": "中島公園野球場",
        "lat": 42.353611,
        "lng": 141.024763,
        "heliDistanceKm": 86,
        "heliFlightMin": 25,
        "heliHelipadMin": 6,
        "rpCount": 3,
        "groundToBaseMin": 100,
        "hospitalTimes": [
          {
            "name": "製鉄記念室蘭病院",
            "min": 4
          },
          {
            "name": "日鋼記念病院",
            "min": 14
          }
        ]
      }
    ]
  },
  {
    "id": "region-iburi-29",
    "municipality": "登別市",
    "subpref": "iburi",
    "fireDepartment": "",
    "lat": 42.412504,
    "lng": 141.1068,
    "withinRequestArea": true,
    "nearbyHospitals": [],
    "points": [
      {
        "rp": "登別市街",
        "lat": 42.412504,
        "lng": 141.1068,
        "heliDistanceKm": 79,
        "heliFlightMin": 23,
        "heliHelipadMin": 6,
        "groundToBaseMin": 100,
        "hospitalTimes": [
          {
            "name": "製鉄記念室蘭病院",
            "min": 24
          },
          {
            "name": "日鋼記念病院",
            "min": 26
          }
        ]
      }
    ]
  },
  {
    "id": "region-iburi-30",
    "municipality": "伊達市",
    "subpref": "iburi",
    "fireDepartment": "",
    "lat": 42.508995,
    "lng": 140.861935,
    "withinRequestArea": true,
    "nearbyHospitals": [],
    "points": [
      {
        "rp": "上長和駐車公園",
        "lat": 42.508995,
        "lng": 140.861935,
        "heliDistanceKm": 74,
        "heliFlightMin": 22,
        "heliHelipadMin": 6,
        "rpCount": 3,
        "groundToBaseMin": 120,
        "hospitalTimes": [
          {
            "name": "製鉄記念室蘭病院",
            "min": 35
          },
          {
            "name": "日鋼記念病院",
            "min": 35
          },
          {
            "name": "伊達赤十字病院",
            "min": 8
          }
        ]
      },
      {
        "rp": "大滝総合運動公園",
        "lat": 42.648393,
        "lng": 141.062558,
        "heliDistanceKm": 54,
        "heliFlightMin": 18,
        "heliHelipadMin": 6,
        "rpCount": 3,
        "groundToBaseMin": 110,
        "hospitalTimes": [
          {
            "name": "製鉄記念室蘭病院",
            "min": 60
          },
          {
            "name": "日鋼記念病院",
            "min": 60
          },
          {
            "name": "伊達赤十字病院",
            "min": 35
          }
        ]
      }
    ]
  },
  {
    "id": "region-iburi-31",
    "municipality": "洞爺湖町",
    "subpref": "iburi",
    "fireDepartment": "",
    "lat": 42.666048,
    "lng": 140.83681,
    "withinRequestArea": true,
    "nearbyHospitals": [],
    "points": [
      {
        "rp": "望羊台広場",
        "lat": 42.666048,
        "lng": 140.83681,
        "heliDistanceKm": 60,
        "heliFlightMin": 19,
        "heliHelipadMin": 6,
        "rpCount": 3,
        "groundToBaseMin": 130,
        "hospitalTimes": [
          {
            "name": "製鉄記念室蘭病院",
            "min": 55
          },
          {
            "name": "日鋼記念病院",
            "min": 55
          },
          {
            "name": "伊達赤十字病院",
            "min": 35
          }
        ]
      }
    ]
  },
  {
    "id": "region-iburi-32",
    "municipality": "壮瞥町",
    "subpref": "iburi",
    "fireDepartment": "",
    "lat": 42.55211,
    "lng": 140.88584,
    "withinRequestArea": true,
    "nearbyHospitals": [],
    "points": [
      {
        "rp": "壮瞥町",
        "lat": 42.55211,
        "lng": 140.88584,
        "heliDistanceKm": 69,
        "heliFlightMin": 21,
        "heliHelipadMin": 6,
        "groundToBaseMin": null,
        "hospitalTimes": []
      }
    ]
  },
  {
    "id": "region-iburi-33",
    "municipality": "白老町",
    "subpref": "iburi",
    "fireDepartment": "",
    "lat": 42.5267,
    "lng": 141.32,
    "withinRequestArea": true,
    "nearbyHospitals": [],
    "points": [
      {
        "rp": "白老町消防本部",
        "lat": 42.5267,
        "lng": 141.32,
        "heliDistanceKm": 65,
        "heliFlightMin": 20,
        "heliHelipadMin": 6,
        "rpCount": 5,
        "groundToBaseMin": null,
        "hospitalTimes": []
      }
    ]
  },
  {
    "id": "region-iburi-34",
    "municipality": "苫小牧市",
    "subpref": "iburi",
    "fireDepartment": "",
    "lat": 42.6698,
    "lng": 141.6532,
    "withinRequestArea": true,
    "nearbyHospitals": [],
    "points": [
      {
        "rp": "苫小牧市消防本部",
        "lat": 42.6698,
        "lng": 141.6532,
        "heliDistanceKm": 59,
        "heliFlightMin": 19,
        "heliHelipadMin": 6,
        "rpCount": 23,
        "groundToBaseMin": null,
        "hospitalTimes": []
      }
    ]
  },
  {
    "id": "region-iburi-35",
    "municipality": "安平町",
    "subpref": "iburi",
    "fireDepartment": "",
    "lat": 42.7628,
    "lng": 141.818,
    "withinRequestArea": true,
    "nearbyHospitals": [],
    "points": [
      {
        "rp": "はだしの広場",
        "lat": 42.7628,
        "lng": 141.818,
        "heliDistanceKm": 60,
        "heliFlightMin": 19,
        "heliHelipadMin": 6,
        "rpCount": 8,
        "groundToBaseMin": null,
        "hospitalTimes": []
      }
    ]
  },
  {
    "id": "region-iburi-36",
    "municipality": "厚真町",
    "subpref": "iburi",
    "fireDepartment": "",
    "lat": 42.7237,
    "lng": 141.8779,
    "withinRequestArea": true,
    "nearbyHospitals": [],
    "points": [
      {
        "rp": "厚真IC旋回場",
        "lat": 42.7237,
        "lng": 141.8779,
        "heliDistanceKm": 67,
        "heliFlightMin": 21,
        "heliHelipadMin": 6,
        "rpCount": 11,
        "groundToBaseMin": null,
        "hospitalTimes": []
      }
    ]
  },
  {
    "id": "region-iburi-37",
    "municipality": "むかわ町",
    "subpref": "iburi",
    "fireDepartment": "",
    "lat": 42.5747,
    "lng": 141.9267,
    "withinRequestArea": true,
    "nearbyHospitals": [],
    "points": [
      {
        "rp": "鵡川左岸ヘリポート",
        "lat": 42.5747,
        "lng": 141.9267,
        "heliDistanceKm": 81,
        "heliFlightMin": 24,
        "heliHelipadMin": 6,
        "rpCount": 8,
        "groundToBaseMin": null,
        "hospitalTimes": []
      }
    ]
  },
  {
    "id": "region-iburi-toyoura",
    "municipality": "豊浦町",
    "subpref": "iburi",
    "fireDepartment": "",
    "lat": 42.5834,
    "lng": 140.712,
    "withinRequestArea": true,
    "nearbyHospitals": [],
    "points": [
      {
        "rp": "豊浦町",
        "lat": 42.5834,
        "lng": 140.712,
        "heliDistanceKm": 73,
        "heliFlightMin": 22,
        "heliHelipadMin": 6,
        "groundToBaseMin": null,
        "hospitalTimes": []
      }
    ]
  },
  {
    "id": "region-sorachi-38",
    "municipality": "岩見沢市",
    "subpref": "sorachi",
    "fireDepartment": "",
    "lat": 43.196,
    "lng": 141.7754,
    "withinRequestArea": true,
    "nearbyHospitals": [],
    "points": [
      {
        "rp": "岩見沢市野球場駐車場",
        "lat": 43.196,
        "lng": 141.7754,
        "heliDistanceKm": 44,
        "heliFlightMin": 16,
        "heliHelipadMin": 6,
        "rpCount": 1,
        "groundToBaseMin": null,
        "hospitalTimes": []
      }
    ]
  },
  {
    "id": "region-sorachi-39",
    "municipality": "美唄市",
    "subpref": "sorachi",
    "fireDepartment": "",
    "lat": 43.3329,
    "lng": 141.8538,
    "withinRequestArea": true,
    "nearbyHospitals": [],
    "points": [
      {
        "rp": "美唄ダム",
        "lat": 43.3329,
        "lng": 141.8538,
        "heliDistanceKm": 55,
        "heliFlightMin": 18,
        "heliHelipadMin": 6,
        "rpCount": 2,
        "groundToBaseMin": null,
        "hospitalTimes": []
      }
    ]
  },
  {
    "id": "region-sorachi-40",
    "municipality": "三笠市",
    "subpref": "sorachi",
    "fireDepartment": "",
    "lat": 43.2498,
    "lng": 142.0024,
    "withinRequestArea": true,
    "nearbyHospitals": [],
    "points": [
      {
        "rp": "桂沢スキー場駐車場",
        "lat": 43.2498,
        "lng": 142.0024,
        "heliDistanceKm": 63,
        "heliFlightMin": 20,
        "heliHelipadMin": 6,
        "rpCount": 14,
        "groundToBaseMin": null,
        "hospitalTimes": []
      }
    ]
  },
  {
    "id": "region-sorachi-41",
    "municipality": "夕張市",
    "subpref": "sorachi",
    "fireDepartment": "",
    "lat": 42.9951,
    "lng": 142.0091,
    "withinRequestArea": true,
    "nearbyHospitals": [],
    "points": [
      {
        "rp": "夕張市消防署",
        "lat": 42.9951,
        "lng": 142.0091,
        "heliDistanceKm": 63,
        "heliFlightMin": 20,
        "heliHelipadMin": 6,
        "rpCount": 36,
        "groundToBaseMin": null,
        "hospitalTimes": []
      }
    ]
  },
  {
    "id": "region-sorachi-42",
    "municipality": "南幌町",
    "subpref": "sorachi",
    "fireDepartment": "",
    "lat": 43.0638,
    "lng": 141.6504,
    "withinRequestArea": true,
    "nearbyHospitals": [],
    "points": [
      {
        "rp": "南幌町総合保安センター",
        "lat": 43.0638,
        "lng": 141.6504,
        "heliDistanceKm": 33,
        "heliFlightMin": 14,
        "heliHelipadMin": 6,
        "rpCount": 19,
        "groundToBaseMin": null,
        "hospitalTimes": []
      }
    ]
  },
  {
    "id": "region-sorachi-43",
    "municipality": "長沼町",
    "subpref": "sorachi",
    "fireDepartment": "",
    "lat": 43.0104,
    "lng": 141.6953,
    "withinRequestArea": true,
    "nearbyHospitals": [],
    "points": [
      {
        "rp": "北長沼分遣所",
        "lat": 43.0104,
        "lng": 141.6953,
        "heliDistanceKm": 38,
        "heliFlightMin": 15,
        "heliHelipadMin": 6,
        "rpCount": 3,
        "groundToBaseMin": null,
        "hospitalTimes": []
      }
    ]
  },
  {
    "id": "region-sorachi-44",
    "municipality": "由仁町",
    "subpref": "sorachi",
    "fireDepartment": "",
    "lat": 42.9996,
    "lng": 141.7903,
    "withinRequestArea": true,
    "nearbyHospitals": [],
    "points": [
      {
        "rp": "由仁消防前",
        "lat": 42.9996,
        "lng": 141.7903,
        "heliDistanceKm": 46,
        "heliFlightMin": 16,
        "heliHelipadMin": 6,
        "rpCount": 8,
        "groundToBaseMin": null,
        "hospitalTimes": []
      }
    ]
  },
  {
    "id": "region-sorachi-45",
    "municipality": "栗山町",
    "subpref": "sorachi",
    "fireDepartment": "",
    "lat": 43.0563,
    "lng": 141.7843,
    "withinRequestArea": true,
    "nearbyHospitals": [],
    "points": [
      {
        "rp": "栗山小学校",
        "lat": 43.0563,
        "lng": 141.7843,
        "heliDistanceKm": 44,
        "heliFlightMin": 16,
        "heliHelipadMin": 6,
        "rpCount": 3,
        "groundToBaseMin": null,
        "hospitalTimes": []
      }
    ]
  },
  {
    "id": "region-sorachi-46",
    "municipality": "月形町",
    "subpref": "sorachi",
    "fireDepartment": "",
    "lat": 43.3372,
    "lng": 141.668,
    "withinRequestArea": true,
    "nearbyHospitals": [],
    "points": [
      {
        "rp": "月形支署",
        "lat": 43.3372,
        "lng": 141.668,
        "heliDistanceKm": 42,
        "heliFlightMin": 16,
        "heliHelipadMin": 6,
        "rpCount": 8,
        "groundToBaseMin": null,
        "hospitalTimes": []
      }
    ]
  },
  {
    "id": "region-sorachi-47",
    "municipality": "奈井江町",
    "subpref": "sorachi",
    "fireDepartment": "",
    "lat": 43.4255,
    "lng": 141.8835,
    "withinRequestArea": true,
    "nearbyHospitals": [],
    "points": [
      {
        "rp": "奈井江町",
        "lat": 43.4255,
        "lng": 141.8835,
        "heliDistanceKm": 62,
        "heliFlightMin": 20,
        "heliHelipadMin": 6,
        "groundToBaseMin": null,
        "hospitalTimes": []
      }
    ]
  },
  {
    "id": "region-hidaka-48",
    "municipality": "日高町",
    "subpref": "hidaka",
    "fireDepartment": "",
    "lat": 42.4803,
    "lng": 142.0743,
    "withinRequestArea": true,
    "nearbyHospitals": [
      "王子総合病院（苫小牧）",
      "苫小牧市立病院"
    ],
    "points": [
      {
        "rp": "富川東防災広場",
        "lat": 42.4803,
        "lng": 142.0743,
        "heliDistanceKm": 97,
        "heliFlightMin": 27,
        "heliHelipadMin": 6,
        "rpCount": 16,
        "groundToBaseMin": null,
        "hospitalTimes": []
      }
    ]
  },
  {
    "id": "region-hidaka-49",
    "municipality": "平取町",
    "subpref": "hidaka",
    "fireDepartment": "",
    "lat": 42.5851,
    "lng": 142.1287,
    "withinRequestArea": true,
    "nearbyHospitals": [
      "王子総合病院（苫小牧）",
      "苫小牧市立病院"
    ],
    "points": [
      {
        "rp": "平取町民体育館",
        "lat": 42.5851,
        "lng": 142.1287,
        "heliDistanceKm": 93,
        "heliFlightMin": 26,
        "heliHelipadMin": 6,
        "rpCount": 1,
        "groundToBaseMin": null,
        "hospitalTimes": []
      }
    ]
  },
  {
    "id": "region-hidaka-50",
    "municipality": "新冠町",
    "subpref": "hidaka",
    "fireDepartment": "",
    "lat": 42.3624,
    "lng": 142.3184,
    "withinRequestArea": true,
    "nearbyHospitals": [
      "王子総合病院（苫小牧）",
      "苫小牧市立病院"
    ],
    "points": [
      {
        "rp": "新冠支署",
        "lat": 42.3624,
        "lng": 142.3184,
        "heliDistanceKm": 121,
        "heliFlightMin": 32,
        "heliHelipadMin": 6,
        "rpCount": 4,
        "groundToBaseMin": null,
        "hospitalTimes": []
      }
    ]
  },
  {
    "id": "region-hidaka-51",
    "municipality": "新ひだか町",
    "subpref": "hidaka",
    "fireDepartment": "",
    "lat": 42.3413,
    "lng": 142.3686,
    "withinRequestArea": true,
    "nearbyHospitals": [
      "王子総合病院（苫小牧）",
      "苫小牧市立病院"
    ],
    "points": [
      {
        "rp": "静内川右岸イベント広場",
        "lat": 42.3413,
        "lng": 142.3686,
        "heliDistanceKm": 125,
        "heliFlightMin": 33,
        "heliHelipadMin": 6,
        "rpCount": 46,
        "groundToBaseMin": null,
        "hospitalTimes": []
      }
    ]
  },
  {
    "id": "region-hidaka-52",
    "municipality": "浦河町",
    "subpref": "hidaka",
    "fireDepartment": "",
    "lat": 42.168,
    "lng": 142.768,
    "withinRequestArea": true,
    "nearbyHospitals": [
      "王子総合病院（苫小牧）",
      "苫小牧市立病院"
    ],
    "points": [
      {
        "rp": "浦河野球場",
        "lat": 42.168,
        "lng": 142.768,
        "heliDistanceKm": 163,
        "heliFlightMin": 41,
        "heliHelipadMin": 6,
        "rpCount": 12,
        "groundToBaseMin": null,
        "hospitalTimes": []
      }
    ]
  },
  {
    "id": "region-hidaka-53",
    "municipality": "様似町",
    "subpref": "hidaka",
    "fireDepartment": "日高東部消防組合",
    "lat": 42.12778,
    "lng": 142.93389,
    "withinRequestArea": true,
    "nearbyHospitals": [
      "王子総合病院（苫小牧）",
      "苫小牧市立病院"
    ],
    "points": [
      {
        "rp": "様似町",
        "lat": 42.12778,
        "lng": 142.93389,
        "heliDistanceKm": 176,
        "heliFlightMin": 44,
        "heliHelipadMin": 6,
        "groundToBaseMin": null,
        "hospitalTimes": []
      }
    ]
  },
  {
    "id": "region-hidaka-54",
    "municipality": "えりも町",
    "subpref": "hidaka",
    "fireDepartment": "",
    "lat": 42.01639,
    "lng": 143.14833,
    "withinRequestArea": true,
    "nearbyHospitals": [
      "王子総合病院（苫小牧）",
      "苫小牧市立病院"
    ],
    "points": [
      {
        "rp": "えりも町",
        "lat": 42.01639,
        "lng": 143.14833,
        "heliDistanceKm": 198,
        "heliFlightMin": 49,
        "heliHelipadMin": 6,
        "groundToBaseMin": null,
        "hospitalTimes": []
      }
    ]
  },
  {
    "id": "region-rumoi-55",
    "municipality": "羽幌町・天売島",
    "subpref": "rumoi",
    "fireDepartment": "北留萌消防組合",
    "lat": 44.36061,
    "lng": 141.69728,
    "withinRequestArea": true,
    "nearbyHospitals": [
      "天売診療所",
      "羽幌病院"
    ],
    "points": [
      {
        "rp": "羽幌町",
        "lat": 44.36061,
        "lng": 141.69728,
        "heliDistanceKm": 143,
        "heliFlightMin": 37,
        "heliHelipadMin": 6,
        "groundToBaseMin": null,
        "hospitalTimes": []
      }
    ]
  }
]